{"data": [{"id": "9ilxfqCnY21F9WSnG_gikg", "alias": "china-fast-wok-chicago", "name": "China Fast Wok", "image_url": "https://s3-media2.fl.yelpcdn.com/bphoto/zOzH2LKiDUxWo_-YfuR-yg/o.jpg", "is_closed": false, "url": "https://www.yelp.com/biz/china-fast-wok-chicago?adjust_creative=HqIVls14KXg2kDlW7eRb9A&utm_campaign=yelp_api_v3&utm_medium=api_v3_business_search&utm_source=HqIVls14KXg2kDlW7eRb9A", "review_count": 171, "categories": [{"alias": "chinese", "title": "Chinese"}], "rating": 3.5, "coordinates": {"latitude": 41.918054, "longitude": -87.697862}, "transactions": ["pickup", "delivery"], "price": "$", "location": {"address1": "2020 N California Ave", "address2": null, "address3": "", "city": "Chicago", "zip_code": "60647", "country": "US", "state": "IL", "display_address": ["2020 N California Ave", "Chicago, IL 60647"]}, "phone": "+17732276888", "display_phone": "(773) 227-6888", "distance": 2195.7808367095586}, {"id": "suwfx9N1jwovQ14VgRsZzw", "alias": "china-doll-chicago", "name": "China Doll", "image_url": "https://s3-media1.fl.yelpcdn.com/bphoto/qngcPhVNcIUXsKeN1AEqTQ/o.jpg", "is_closed": false, "url": "https://www.yelp.com/biz/china-doll-chicago?adjust_creative=HqIVls14KXg2kDlW7eRb9A&utm_campaign=yelp_api_v3&utm_medium=api_v3_business_search&utm_source=HqIVls14KXg2kDlW7eRb9A", "review_count": 200, "categories": [{"alias": "chinese", "title": "Chinese"}], "rating": 2.0, "coordinates": {"latitude": 41.90525, "longitude": -87.63486}, "transactions": ["pickup", "delivery"], "price": "$", "location": {"address1": "1246 N Wells St", "address2": "", "address3": "", "city": "Chicago", "zip_code": "60610", "country": "US", "state": "IL", "display_address": ["1246 N Wells St", "Chicago, IL 60610"]}, "phone": "+13129439300", "display_phone": "(312) 943-9300", "distance": 3554.515213479586}, {"id": "DGBp72_qQdmSv7hAJuHsxA", "alias": "china-snack-chicago", "name": "China Snack", "image_url": "https://s3-media3.fl.yelpcdn.com/bphoto/LGBLu7D4jqIOiczhT8fMSw/o.jpg", "is_closed": false, "url": "https://www.yelp.com/biz/china-snack-chicago?adjust_creative=HqIVls14KXg2kDlW7eRb9A&utm_campaign=yelp_api_v3&utm_medium=api_v3_business_search&utm_source=HqIVls14KXg2kDlW7eRb9A", "review_count": 22, "categories": [{"alias": "chinese", "title": "Chinese"}], "rating": 4.5, "coordinates": {"latitude": 41.85156, "longitude": -87.70139}, "transactions": ["delivery"], "price": "$", "location": {"address1": "3025 W Cermak Rd", "address2": "", "address3": "", "city": "Chicago", "zip_code": "60623", "country": "US", "state": "IL", "display_address": ["3025 W Cermak Rd", "Chicago, IL 60623"]}, "phone": "+17735221511", "display_phone": "(773) 522-1511", "distance": 6260.305974814187}, {"id": "cDtcbT4aEwmTsgS0KF_PlQ", "alias": "china-cafe-chicago", "name": "China Cafe", "image_url": "https://s3-media4.fl.yelpcdn.com/bphoto/35jRL9wA5wpVS51i53kVtw/o.jpg", "is_closed": false, "url": "https://www.yelp.com/biz/china-cafe-chicago?adjust_creative=HqIVls14KXg2kDlW7eRb9A&utm_campaign=yelp_api_v3&utm_medium=api_v3_business_search&utm_source=HqIVls14KXg2kDlW7eRb9A", "review_count": 152, "categories": [{"alias": "chinese", "title": "Chinese"}], "rating": 3.0, "coordinates": {"latitude": 41.8507905, "longitude": -87.6321496}, "transactions": ["pickup", "delivery"], "price": "$", "location": {"address1": "2300 S Wentworth Ave", "address2": "", "address3": "", "city": "Chicago", "zip_code": "60616", "country": "US", "state": "IL", "display_address": ["2300 S Wentworth Ave", "Chicago, IL 60616"]}, "phone": "+13128080202", "display_phone": "(312) 808-0202", "distance": 7120.886206641742}, {"id": "RmMRHFyFR5sGBdF47huxKg", "alias": "china-palace-chicago-2", "name": "China Palace", "image_url": "https://s3-media2.fl.yelpcdn.com/bphoto/BCPUJoOBYSaaDSH-TYb3fw/o.jpg", "is_closed": false, "url": "https://www.yelp.com/biz/china-palace-chicago-2?adjust_creative=HqIVls14KXg2kDlW7eRb9A&utm_campaign=yelp_api_v3&utm_medium=api_v3_business_search&utm_source=HqIVls14KXg2kDlW7eRb9A", "review_count": 104, "categories": [{"alias": "chinese", "title": "Chinese"}], "rating": 3.0, "coordinates": {"latitude": 41.9899139934233, "longitude": -87.6594649392986}, "transactions": ["pickup", "delivery"], "price": "$", "location": {"address1": "1129 W Thorndale Ave", "address2": null, "address3": "", "city": "Chicago", "zip_code": "60660", "country": "US", "state": "IL", "display_address": ["1129 W Thorndale Ave", "Chicago, IL 60660"]}, "phone": "+17732713010", "display_phone": "(773) 271-3010", "distance": 9514.550632270422}, {"id": "HTXcuk7e_N1JmHU9162Mjw", "alias": "china-dragon-restaurant-chicago", "name": "China Dragon Restaurant", "image_url": "https://s3-media2.fl.yelpcdn.com/bphoto/--8H1aRhgD426w1tDB6jGw/o.jpg", "is_closed": false, "url": "https://www.yelp.com/biz/china-dragon-restaurant-chicago?adjust_creative=HqIVls14KXg2kDlW7eRb9A&utm_campaign=yelp_api_v3&utm_medium=api_v3_business_search&utm_source=HqIVls14KXg2kDlW7eRb9A", "review_count": 116, "categories": [{"alias": "chinese", "title": "Chinese"}], "rating": 3.0, "coordinates": {"latitude": 41.857569, "longitude": -87.670114}, "transactions": ["pickup", "delivery"], "price": "$", "location": {"address1": "1737 W 18th St", "address2": "", "address3": "", "city": "Chicago", "zip_code": "60608", "country": "US", "state": "IL", "display_address": ["1737 W 18th St", "Chicago, IL 60608"]}, "phone": "+13126663766", "display_phone": "(312) 666-3766", "distance": 5333.050080161078}, {"id": "7bayZdgSdeXJ_dsVLvvE5g", "alias": "china-kitchen-chicago-3", "name": "China Kitchen", "image_url": "https://s3-media3.fl.yelpcdn.com/bphoto/vU4EL3M9L-s2dd9NXGxjSg/o.jpg", "is_closed": false, "url": "https://www.yelp.com/biz/china-kitchen-chicago-3?adjust_creative=HqIVls14KXg2kDlW7eRb9A&utm_campaign=yelp_api_v3&utm_medium=api_v3_business_search&utm_source=HqIVls14KXg2kDlW7eRb9A", "review_count": 54, "categories": [{"alias": "chinese", "title": "Chinese"}], "rating": 3.0, "coordinates": {"latitude": 41.9759251, "longitude": -87.6776414}, "transactions": ["pickup", "delivery"], "price": "$", "location": {"address1": "1931 W Foster Ave", "address2": null, "address3": "", "city": "Chicago", "zip_code": "60640", "country": "US", "state": "IL", "display_address": ["1931 W Foster Ave", "Chicago, IL 60640"]}, "phone": "+17733344438", "display_phone": "(773) 334-4438", "distance": 7851.11039525098}, {"id": "aw9fVEOdD1jdvOdoxAQGuw", "alias": "china-wok-restaurant-chicago", "name": "China Wok Restaurant", "image_url": "https://s3-media4.fl.yelpcdn.com/bphoto/MxVA0sFb6fKZOS2lAaIwag/o.jpg", "is_closed": false, "url": "https://www.yelp.com/biz/china-wok-restaurant-chicago?adjust_creative=HqIVls14KXg2kDlW7eRb9A&utm_campaign=yelp_api_v3&utm_medium=api_v3_business_search&utm_source=HqIVls14KXg2kDlW7eRb9A", "review_count": 24, "categories": [{"alias": "chinese", "title": "Chinese"}], "rating": 4.0, "coordinates": {"latitude": 41.9370727539062, "longitude": -87.7667922973633}, "transactions": ["pickup", "delivery"], "price": "$", "location": {"address1": "3106 N Central Ave", "address2": "", "address3": "", "city": "Chicago", "zip_code": "60634", "country": "US", "state": "IL", "display_address": ["3106 N Central Ave", "Chicago, IL 60634"]}, "phone": "+17736226166", "display_phone": "(773) 622-6166", "distance": 8179.733309829926}, {"id": "MGfweDOBO33waVYPSu1UzA", "alias": "china-kitchen-chicago-4", "name": "China Kitchen", "image_url": "https://s3-media2.fl.yelpcdn.com/bphoto/9hcvfkC1L0sSFv1rGhxcDQ/o.jpg", "is_closed": false, "url": "https://www.yelp.com/biz/china-kitchen-chicago-4?adjust_creative=HqIVls14KXg2kDlW7eRb9A&utm_campaign=yelp_api_v3&utm_medium=api_v3_business_search&utm_source=HqIVls14KXg2kDlW7eRb9A", "review_count": 94, "categories": [{"alias": "chinese", "title": "Chinese"}], "rating": 3.5, "coordinates": {"latitude": 41.97654, "longitude": -87.837292}, "transactions": ["pickup", "delivery"], "price": "$", "location": {"address1": "5332 N Cumberland Ave", "address2": "", "address3": "", "city": "Chicago", "zip_code": "60656", "country": "US", "state": "IL", "display_address": ["5332 N Cumberland Ave", "Chicago, IL 60656"]}, "phone": "+17736933223", "display_phone": "(773) 693-3223", "distance": 15392.86218902038}, {"id": "3NV3TTsKGqW1WEbEQv_yBA", "alias": "chengdu-impression-chicago-2", "name": "Chengdu Impression", "image_url": "https://s3-media4.fl.yelpcdn.com/bphoto/5czxP8WW3FzhPWUyUT9edw/o.jpg", "is_closed": false, "url": "https://www.yelp.com/biz/chengdu-impression-chicago-2?adjust_creative=HqIVls14KXg2kDlW7eRb9A&utm_campaign=yelp_api_v3&utm_medium=api_v3_business_search&utm_source=HqIVls14KXg2kDlW7eRb9A", "review_count": 751, "categories": [{"alias": "szechuan", "title": "Szechuan"}], "rating": 4.0, "coordinates": {"latitude": 41.9286079, "longitude": -87.648514}, "transactions": ["pickup", "delivery", "restaurant_reservation"], "price": "$$", "location": {"address1": "2545 N Halsted St", "address2": "", "address3": "", "city": "Chicago", "zip_code": "60614", "country": "US", "state": "IL", "display_address": ["2545 N Halsted St", "Chicago, IL 60614"]}, "phone": "+17734776256", "display_phone": "(773) 477-6256", "distance": 3557.5360403146788}, {"id": "T_egMuf7xJHLdldzPqOaSQ", "alias": "qing-xiang-yuan-dumplings-chicago-3", "name": "Qing Xiang Yuan Dumplings", "image_url": "https://s3-media2.fl.yelpcdn.com/bphoto/aWQRldaDRDdVcK41inP90w/o.jpg", "is_closed": false, "url": "https://www.yelp.com/biz/qing-xiang-yuan-dumplings-chicago-3?adjust_creative=HqIVls14KXg2kDlW7eRb9A&utm_campaign=yelp_api_v3&utm_medium=api_v3_business_search&utm_source=HqIVls14KXg2kDlW7eRb9A", "review_count": 1519, "categories": [{"alias": "bbq", "title": "Barbeque"}, {"alias": "dimsum", "title": "Dim Sum"}, {"alias": "coffee", "title": "Coffee & Tea"}], "rating": 4.5, "coordinates": {"latitude": 41.85505, "longitude": -87.63219}, "transactions": ["pickup", "delivery"], "price": "$$", "location": {"address1": "2002 S Wentworth Ave", "address2": "Ste 103", "address3": "", "city": "Chicago", "zip_code": "60616", "country": "US", "state": "IL", "display_address": ["2002 S Wentworth Ave", "Ste 103", "Chicago, IL 60616"]}, "phone": "+13127991118", "display_phone": "(312) 799-1118", "distance": 6728.411609861725}, {"id": "CMrVujJr0QdlhdX7nFBM3w", "alias": "chengdu-impression-wicker-park-chicago", "name": "Chengdu Impression - Wicker Park", "image_url": "https://s3-media4.fl.yelpcdn.com/bphoto/JfR_YZ5GD9zqq4tZYSaemg/o.jpg", "is_closed": false, "url": "https://www.yelp.com/biz/chengdu-impression-wicker-park-chicago?adjust_creative=HqIVls14KXg2kDlW7eRb9A&utm_campaign=yelp_api_v3&utm_medium=api_v3_business_search&utm_source=HqIVls14KXg2kDlW7eRb9A", "review_count": 77, "categories": [{"alias": "szechuan", "title": "Szechuan"}, {"alias": "noodles", "title": "Noodles"}, {"alias": "soup", "title": "Soup"}], "rating": 4.0, "coordinates": {"latitude": 41.90517, "longitude": -87.66973}, "transactions": ["pickup", "delivery"], "price": "$$", "location": {"address1": "1300 N Milwaukee Ave", "address2": "", "address3": null, "city": "Chicago", "zip_code": "60622", "country": "US", "state": "IL", "display_address": ["1300 N Milwaukee Ave", "Chicago, IL 60622"]}, "phone": "+17736616767", "display_phone": "(773) 661-6767", "distance": 671.3327387685973}, {"id": "XWodOV8dW4WlK2XB3j6JnA", "alias": "chef-s-special-cocktail-bar-chicago", "name": "Chef\u2019s Special Cocktail Bar", "image_url": "https://s3-media2.fl.yelpcdn.com/bphoto/Ap7gVkEvwUK80U4fiY-_Tw/o.jpg", "is_closed": false, "url": "https://www.yelp.com/biz/chef-s-special-cocktail-bar-chicago?adjust_creative=HqIVls14KXg2kDlW7eRb9A&utm_campaign=yelp_api_v3&utm_medium=api_v3_business_search&utm_source=HqIVls14KXg2kDlW7eRb9A", "review_count": 206, "categories": [{"alias": "cocktailbars", "title": "Cocktail Bars"}, {"alias": "chinese", "title": "Chinese"}, {"alias": "seafood", "title": "Seafood"}], "rating": 4.5, "coordinates": {"latitude": 41.921735, "longitude": -87.68721}, "transactions": ["delivery"], "location": {"address1": "2165 N Western Ave", "address2": "", "address3": null, "city": "Chicago", "zip_code": "60647", "country": "US", "state": "IL", "display_address": ["2165 N Western Ave", "Chicago, IL 60647"]}, "phone": "+17736665143", "display_phone": "(773) 666-5143", "distance": 2004.6900238252604}, {"id": "HWwXWszZK5cCLTrKkqvlCA", "alias": "d-cuisine-chicago-3", "name": "D Cuisine", "image_url": "https://s3-media2.fl.yelpcdn.com/bphoto/NMXKGx_jtOzbTZLnhmAI9A/o.jpg", "is_closed": false, "url": "https://www.yelp.com/biz/d-cuisine-chicago-3?adjust_creative=HqIVls14KXg2kDlW7eRb9A&utm_campaign=yelp_api_v3&utm_medium=api_v3_business_search&utm_source=HqIVls14KXg2kDlW7eRb9A", "review_count": 316, "categories": [{"alias": "dimsum", "title": "Dim Sum"}, {"alias": "cantonese", "title": "Cantonese"}, {"alias": "seafood", "title": "Seafood"}], "rating": 4.5, "coordinates": {"latitude": 41.93208, "longitude": -87.644361}, "transactions": ["pickup", "delivery"], "price": "$$", "location": {"address1": "2723 N Clark St", "address2": null, "address3": "", "city": "Chicago", "zip_code": "60614", "country": "US", "state": "IL", "display_address": ["2723 N Clark St", "Chicago, IL 60614"]}, "phone": "+17733607239", "display_phone": "(773) 360-7239", "distance": 4073.7414693145583}, {"id": "Nn19Yw7BsQ_0ICRa56BKow", "alias": "new-china-chicago-2", "name": "New China", "image_url": "https://s3-media1.fl.yelpcdn.com/bphoto/ri3tvXH0noDUkiJtvClFzw/o.jpg", "is_closed": false, "url": "https://www.yelp.com/biz/new-china-chicago-2?adjust_creative=HqIVls14KXg2kDlW7eRb9A&utm_campaign=yelp_api_v3&utm_medium=api_v3_business_search&utm_source=HqIVls14KXg2kDlW7eRb9A", "review_count": 123, "categories": [{"alias": "chinese", "title": "Chinese"}], "rating": 3.0, "coordinates": {"latitude": 41.9033088684082, "longitude": -87.6886215209961}, "transactions": ["pickup", "delivery"], "price": "$", "location": {"address1": "2438 W Division St", "address2": "", "address3": "", "city": "Chicago", "zip_code": "60622", "country": "US", "state": "IL", "display_address": ["2438 W Division St", "Chicago, IL 60622"]}, "phone": "+17733949188", "display_phone": "(773) 394-9188", "distance": 924.3114770649269}, {"id": "7FRba2yDi9uWlSBvahRmEw", "alias": "minghin-cuisine-chicago-7", "name": "MingHin Cuisine", "image_url": "https://s3-media2.fl.yelpcdn.com/bphoto/4gLwu1rR4RPsCJ7G196-mQ/o.jpg", "is_closed": false, "url": "https://www.yelp.com/biz/minghin-cuisine-chicago-7?adjust_creative=HqIVls14KXg2kDlW7eRb9A&utm_campaign=yelp_api_v3&utm_medium=api_v3_business_search&utm_source=HqIVls14KXg2kDlW7eRb9A", "review_count": 1045, "categories": [{"alias": "dimsum", "title": "Dim Sum"}, {"alias": "cantonese", "title": "Cantonese"}, {"alias": "asianfusion", "title": "Asian Fusion"}], "rating": 4.0, "coordinates": {"latitude": 41.885169, "longitude": -87.619152}, "transactions": ["pickup", "delivery"], "price": "$$", "location": {"address1": "333 E Benton Pl", "address2": "Ste 300", "address3": "", "city": "Chicago", "zip_code": "60601", "country": "US", "state": "IL", "display_address": ["333 E Benton Pl", "Ste 300", "Chicago, IL 60601"]}, "phone": "+13122281333", "display_phone": "(312) 228-1333", "distance": 5336.36406470144}, {"id": "oSI2djSdl7KjNGwb7PDWCg", "alias": "lao-peng-you-chicago", "name": "Lao Peng You", "image_url": "https://s3-media2.fl.yelpcdn.com/bphoto/Tjn076weR9VhY5-AvpWqBQ/o.jpg", "is_closed": false, "url": "https://www.yelp.com/biz/lao-peng-you-chicago?adjust_creative=HqIVls14KXg2kDlW7eRb9A&utm_campaign=yelp_api_v3&utm_medium=api_v3_business_search&utm_source=HqIVls14KXg2kDlW7eRb9A", "review_count": 245, "categories": [{"alias": "chinese", "title": "Chinese"}], "rating": 4.0, "coordinates": {"latitude": 41.89610667, "longitude": -87.67786167}, "transactions": ["delivery"], "price": "$$", "location": {"address1": "2020 W Chicago Ave", "address2": "", "address3": null, "city": "Chicago", "zip_code": "60622", "country": "US", "state": "IL", "display_address": ["2020 W Chicago Ave", "Chicago, IL 60622"]}, "phone": "+18722068624", "display_phone": "(872) 206-8624", "distance": 1010.1354390357178}, {"id": "s1JPKx5lAeoq7QU8pmN-5A", "alias": "minghin-cuisine-chicago-3", "name": "MingHin Cuisine", "image_url": "https://s3-media3.fl.yelpcdn.com/bphoto/_rc0nGdCbFMaiOzHY9xJFg/o.jpg", "is_closed": false, "url": "https://www.yelp.com/biz/minghin-cuisine-chicago-3?adjust_creative=HqIVls14KXg2kDlW7eRb9A&utm_campaign=yelp_api_v3&utm_medium=api_v3_business_search&utm_source=HqIVls14KXg2kDlW7eRb9A", "review_count": 2819, "categories": [{"alias": "seafood", "title": "Seafood"}, {"alias": "dimsum", "title": "Dim Sum"}, {"alias": "cantonese", "title": "Cantonese"}], "rating": 4.0, "coordinates": {"latitude": 41.8532564325305, "longitude": -87.6349026829699}, "transactions": ["pickup", "delivery"], "price": "$$", "location": {"address1": "2168 S Archer Ave", "address2": "", "address3": "", "city": "Chicago", "zip_code": "60616", "country": "US", "state": "IL", "display_address": ["2168 S Archer Ave", "Chicago, IL 60616"]}, "phone": "+13128081999", "display_phone": "(312) 808-1999", "distance": 6775.0005921381735}, {"id": "m973NCh_zflXOrJZnUTPfA", "alias": "mon-lung-chicago-2", "name": "Mon Lung", "image_url": "https://s3-media1.fl.yelpcdn.com/bphoto/hNiw89haNVXcdEBpJDkz3g/o.jpg", "is_closed": false, "url": "https://www.yelp.com/biz/mon-lung-chicago-2?adjust_creative=HqIVls14KXg2kDlW7eRb9A&utm_campaign=yelp_api_v3&utm_medium=api_v3_business_search&utm_source=HqIVls14KXg2kDlW7eRb9A", "review_count": 308, "categories": [{"alias": "chinese", "title": "Chinese"}, {"alias": "juicebars", "title": "Juice Bars & Smoothies"}, {"alias": "seafood", "title": "Seafood"}], "rating": 3.5, "coordinates": {"latitude": 41.9000324, "longitude": -87.66717471380476}, "transactions": ["pickup", "delivery"], "price": "$", "location": {"address1": "1009 N Ashland Ave", "address2": "", "address3": "", "city": "Chicago", "zip_code": "60622", "country": "US", "state": "IL", "display_address": ["1009 N Ashland Ave", "Chicago, IL 60622"]}, "phone": "+17732278824", "display_phone": "(773) 227-8824", "distance": 1045.5369609907277}, {"id": "4-uKJdGyT0iZmu3rbSDwBw", "alias": "great-sea-restaurant-chicago", "name": "Great Sea Restaurant", "image_url": "https://s3-media3.fl.yelpcdn.com/bphoto/nWVQWXznc266mvlL5CZM5A/o.jpg", "is_closed": false, "url": "https://www.yelp.com/biz/great-sea-restaurant-chicago?adjust_creative=HqIVls14KXg2kDlW7eRb9A&utm_campaign=yelp_api_v3&utm_medium=api_v3_business_search&utm_source=HqIVls14KXg2kDlW7eRb9A", "review_count": 789, "categories": [{"alias": "chinese", "title": "Chinese"}, {"alias": "chicken_wings", "title": "Chicken Wings"}, {"alias": "seafood", "title": "Seafood"}], "rating": 4.0, "coordinates": {"latitude": 41.96817, "longitude": -87.71063}, "transactions": ["pickup", "delivery"], "price": "$$", "location": {"address1": "3253 W Lawrence Ave", "address2": "", "address3": "", "city": "Chicago", "zip_code": "60625", "country": "US", "state": "IL", "display_address": ["3253 W Lawrence Ave", "Chicago, IL 60625"]}, "phone": "+17734789129", "display_phone": "(773) 478-9129", "distance": 7530.8319570152935}, {"id": "SpVZ2h1mHAHWWuI7SjsR0Q", "alias": "golden-chef-chinese-kitchen-chicago", "name": "Golden Chef Chinese Kitchen", "image_url": "https://s3-media1.fl.yelpcdn.com/bphoto/HrlxFcnNyMqPLpbyr1hzZQ/o.jpg", "is_closed": false, "url": "https://www.yelp.com/biz/golden-chef-chinese-kitchen-chicago?adjust_creative=HqIVls14KXg2kDlW7eRb9A&utm_campaign=yelp_api_v3&utm_medium=api_v3_business_search&utm_source=HqIVls14KXg2kDlW7eRb9A", "review_count": 66, "categories": [{"alias": "chinese", "title": "Chinese"}], "rating": 3.5, "coordinates": {"latitude": 41.910419, "longitude": -87.709274}, "transactions": ["pickup", "delivery"], "price": "$", "location": {"address1": "3262 W North Ave", "address2": "", "address3": "", "city": "Chicago", "zip_code": "60647", "country": "US", "state": "IL", "display_address": ["3262 W North Ave", "Chicago, IL 60647"]}, "phone": "+17737726719", "display_phone": "(773) 772-6719", "distance": 2665.4556728978587}, {"id": "9WqiX6CdZxg1ju8EjReVkQ", "alias": "happy-lamb-hot-pot-chicago-chinatown-chicago", "name": "Happy Lamb Hot Pot, Chicago Chinatown", "image_url": "https://s3-media1.fl.yelpcdn.com/bphoto/TDusCiaC133RTofLhtLc-g/o.jpg", "is_closed": false, "url": "https://www.yelp.com/biz/happy-lamb-hot-pot-chicago-chinatown-chicago?adjust_creative=HqIVls14KXg2kDlW7eRb9A&utm_campaign=yelp_api_v3&utm_medium=api_v3_business_search&utm_source=HqIVls14KXg2kDlW7eRb9A", "review_count": 1080, "categories": [{"alias": "mongolian", "title": "Mongolian"}, {"alias": "hotpot", "title": "Hot Pot"}, {"alias": "chinese", "title": "Chinese"}], "rating": 4.5, "coordinates": {"latitude": 41.8496414, "longitude": -87.6321168}, "transactions": ["delivery"], "price": "$$", "location": {"address1": "2342 S Wentworth Ave", "address2": null, "address3": "", "city": "Chicago", "zip_code": "60616", "country": "US", "state": "IL", "display_address": ["2342 S Wentworth Ave", "Chicago, IL 60616"]}, "phone": "+13129293224", "display_phone": "(312) 929-3224", "distance": 7231.551395312766}, {"id": "TjPPHjSDJwrFWvG1W3drtw", "alias": "shanghai-terrace-chicago", "name": "Shanghai Terrace", "image_url": "https://s3-media3.fl.yelpcdn.com/bphoto/ORF1T5gux6CFbNmS5QSWng/o.jpg", "is_closed": false, "url": "https://www.yelp.com/biz/shanghai-terrace-chicago?adjust_creative=HqIVls14KXg2kDlW7eRb9A&utm_campaign=yelp_api_v3&utm_medium=api_v3_business_search&utm_source=HqIVls14KXg2kDlW7eRb9A", "review_count": 404, "categories": [{"alias": "chinese", "title": "Chinese"}, {"alias": "cocktailbars", "title": "Cocktail Bars"}], "rating": 4.0, "coordinates": {"latitude": 41.896204, "longitude": -87.625096}, "transactions": ["pickup", "delivery"], "price": "$$$", "location": {"address1": "108 E Superior St", "address2": "Ste 2508", "address3": "", "city": "Chicago", "zip_code": "60611", "country": "US", "state": "IL", "display_address": ["108 E Superior St", "Ste 2508", "Chicago, IL 60611"]}, "phone": "+13125736744", "display_phone": "(312) 573-6744", "distance": 4465.584699219231}, {"id": "BwoMqO_x_FRT949HOAtCEw", "alias": "chi-cafe-chicago", "name": "Chi Cafe", "image_url": "https://s3-media1.fl.yelpcdn.com/bphoto/INkU7fl4Yq5tCarbRM8rEg/o.jpg", "is_closed": false, "url": "https://www.yelp.com/biz/chi-cafe-chicago?adjust_creative=HqIVls14KXg2kDlW7eRb9A&utm_campaign=yelp_api_v3&utm_medium=api_v3_business_search&utm_source=HqIVls14KXg2kDlW7eRb9A", "review_count": 1255, "categories": [{"alias": "chinese", "title": "Chinese"}], "rating": 4.0, "coordinates": {"latitude": 41.85351, "longitude": -87.63448}, "transactions": ["pickup", "delivery"], "price": "$$", "location": {"address1": "2160 S Archer Ave", "address2": "Ste A", "address3": "", "city": "Chicago", "zip_code": "60616", "country": "US", "state": "IL", "display_address": ["2160 S Archer Ave", "Ste A", "Chicago, IL 60616"]}, "phone": "+13128429993", "display_phone": "(312) 842-9993", "distance": 6769.096996695956}, {"id": "pNuDH4Fe7-zmBnVJEfrhTQ", "alias": "jian-chicago", "name": "JIAN", "image_url": "https://s3-media3.fl.yelpcdn.com/bphoto/eCaxRMAEplof6Nv5sU7-KQ/o.jpg", "is_closed": false, "url": "https://www.yelp.com/biz/jian-chicago?adjust_creative=HqIVls14KXg2kDlW7eRb9A&utm_campaign=yelp_api_v3&utm_medium=api_v3_business_search&utm_source=HqIVls14KXg2kDlW7eRb9A", "review_count": 75, "categories": [{"alias": "chinese", "title": "Chinese"}], "rating": 4.5, "coordinates": {"latitude": 41.88392, "longitude": -87.640522}, "transactions": ["pickup", "delivery"], "location": {"address1": "131 N Clinton Street", "address2": "", "address3": "", "city": "Chicago", "zip_code": "60602", "country": "US", "state": "IL", "display_address": ["131 N Clinton Street", "Chicago, IL 60602"]}, "phone": "+13129666810", "display_phone": "(312) 966-6810", "distance": 3845.018478756696}, {"id": "NjOhrICS1KSvXvvPWXgzfA", "alias": "friend-bbq-chicago-7", "name": "Friend BBQ", "image_url": "https://s3-media2.fl.yelpcdn.com/bphoto/dozPeQEPK6GjwiCI_uBNXw/o.jpg", "is_closed": false, "url": "https://www.yelp.com/biz/friend-bbq-chicago-7?adjust_creative=HqIVls14KXg2kDlW7eRb9A&utm_campaign=yelp_api_v3&utm_medium=api_v3_business_search&utm_source=HqIVls14KXg2kDlW7eRb9A", "review_count": 43, "categories": [{"alias": "chinese", "title": "Chinese"}, {"alias": "bbq", "title": "Barbeque"}, {"alias": "hotpot", "title": "Hot Pot"}], "rating": 4.0, "coordinates": {"latitude": 41.84931, "longitude": -87.63224}, "transactions": ["pickup", "delivery"], "location": {"address1": "2358 S Wentworth Ave", "address2": null, "address3": "", "city": "Chicago", "zip_code": "60616", "country": "US", "state": "IL", "display_address": ["2358 S Wentworth Ave", "Chicago, IL 60616"]}, "phone": "+13126248153", "display_phone": "(312) 624-8153", "distance": 7264.408135429785}, {"id": "HP3zkN0SvoDzQiOdiMAKLw", "alias": "cheng-chopsticks-chicago", "name": "Cheng Chopsticks", "image_url": "https://s3-media3.fl.yelpcdn.com/bphoto/gGzupn68vCnZ2OMKtpPEIg/o.jpg", "is_closed": false, "url": "https://www.yelp.com/biz/cheng-chopsticks-chicago?adjust_creative=HqIVls14KXg2kDlW7eRb9A&utm_campaign=yelp_api_v3&utm_medium=api_v3_business_search&utm_source=HqIVls14KXg2kDlW7eRb9A", "review_count": 165, "categories": [{"alias": "chinese", "title": "Chinese"}], "rating": 3.5, "coordinates": {"latitude": 41.91716, "longitude": -87.704205}, "transactions": ["pickup", "delivery"], "price": "$", "location": {"address1": "3054 W Armitage Ave", "address2": "", "address3": "", "city": "Chicago", "zip_code": "60647", "country": "US", "state": "IL", "display_address": ["3054 W Armitage Ave", "Chicago, IL 60647"]}, "phone": "+17733841668", "display_phone": "(773) 384-1668", "distance": 2562.72584332364}, {"id": "hq3S-k7cmHBUqr0W-Zb_pA", "alias": "great-beijing-lincolnwood-2", "name": "Great Beijing", "image_url": "https://s3-media3.fl.yelpcdn.com/bphoto/VWm9iaFFLh7Sa4x6ULn6dA/o.jpg", "is_closed": false, "url": "https://www.yelp.com/biz/great-beijing-lincolnwood-2?adjust_creative=HqIVls14KXg2kDlW7eRb9A&utm_campaign=yelp_api_v3&utm_medium=api_v3_business_search&utm_source=HqIVls14KXg2kDlW7eRb9A", "review_count": 325, "categories": [{"alias": "chinese", "title": "Chinese"}], "rating": 3.5, "coordinates": {"latitude": 42.00315, "longitude": -87.72745}, "transactions": ["delivery"], "price": "$$", "location": {"address1": "6717 N Lincoln Ave", "address2": "", "address3": "", "city": "Lincolnwood", "zip_code": "60712", "country": "US", "state": "IL", "display_address": ["6717 N Lincoln Ave", "Lincolnwood, IL 60712"]}, "phone": "+18476735588", "display_phone": "(847) 673-5588", "distance": 11651.933555064632}, {"id": "RBRmn-lk0R6bgvqXeNqT3w", "alias": "shanghai-inn-chicago", "name": "Shanghai Inn", "image_url": "https://s3-media3.fl.yelpcdn.com/bphoto/VXNoLXGcsty9P6jXkR8YLA/o.jpg", "is_closed": false, "url": "https://www.yelp.com/biz/shanghai-inn-chicago?adjust_creative=HqIVls14KXg2kDlW7eRb9A&utm_campaign=yelp_api_v3&utm_medium=api_v3_business_search&utm_source=HqIVls14KXg2kDlW7eRb9A", "review_count": 369, "categories": [{"alias": "chinese", "title": "Chinese"}], "rating": 4.0, "coordinates": {"latitude": 41.967647, "longitude": -87.679002}, "transactions": ["pickup", "delivery"], "price": "$$", "location": {"address1": "4723 N Damen Ave", "address2": "", "address3": "", "city": "Chicago", "zip_code": "60625", "country": "US", "state": "IL", "display_address": ["4723 N Damen Ave", "Chicago, IL 60625"]}, "phone": "+17735613275", "display_phone": "(773) 561-3275", "distance": 6949.065851531525}, {"id": "XuXQf308Su3w_17w6fTZxg", "alias": "royal-highness-zhu-chicago-2", "name": "Royal Highness Zhu", "image_url": "https://s3-media2.fl.yelpcdn.com/bphoto/vvEF-_8p_lvEH0RnNSX4Ww/o.jpg", "is_closed": false, "url": "https://www.yelp.com/biz/royal-highness-zhu-chicago-2?adjust_creative=HqIVls14KXg2kDlW7eRb9A&utm_campaign=yelp_api_v3&utm_medium=api_v3_business_search&utm_source=HqIVls14KXg2kDlW7eRb9A", "review_count": 57, "categories": [{"alias": "hotpot", "title": "Hot Pot"}, {"alias": "tapasmallplates", "title": "Tapas/Small Plates"}, {"alias": "szechuan", "title": "Szechuan"}], "rating": 4.5, "coordinates": {"latitude": 41.925029, "longitude": -87.659334}, "transactions": ["pickup", "delivery"], "price": "$$", "location": {"address1": "1217-1219 W Fullerton Ave", "address2": null, "address3": null, "city": "Chicago", "zip_code": "60614", "country": "US", "state": "IL", "display_address": ["1217-1219 W Fullerton Ave", "Chicago, IL 60614"]}, "phone": "+17737998151", "display_phone": "(773) 799-8151", "distance": 2685.9841991564394}, {"id": "zlvkbqkgYun3sqs02Sqyig", "alias": "house-of-wah-sun-chicago", "name": "House of Wah Sun", "image_url": "https://s3-media3.fl.yelpcdn.com/bphoto/1btDGGNv85wSUUPpcVQlvA/o.jpg", "is_closed": false, "url": "https://www.yelp.com/biz/house-of-wah-sun-chicago?adjust_creative=HqIVls14KXg2kDlW7eRb9A&utm_campaign=yelp_api_v3&utm_medium=api_v3_business_search&utm_source=HqIVls14KXg2kDlW7eRb9A", "review_count": 394, "categories": [{"alias": "chinese", "title": "Chinese"}], "rating": 4.0, "coordinates": {"latitude": 41.95415684480054, "longitude": -87.70953771379999}, "transactions": ["pickup", "delivery"], "price": "$$", "location": {"address1": "3234 W Irving Park", "address2": "", "address3": "", "city": "Chicago", "zip_code": "60618", "country": "US", "state": "IL", "display_address": ["3234 W Irving Park", "Chicago, IL 60618"]}, "phone": "+17734770800", "display_phone": "(773) 477-0800", "distance": 6049.15413266237}, {"id": "T1dv09OKSxmuitPVLXD5Aw", "alias": "serai-chicago", "name": "Serai", "image_url": "https://s3-media1.fl.yelpcdn.com/bphoto/gpf3Bs4El0FNxiZ6bBu4Mg/o.jpg", "is_closed": false, "url": "https://www.yelp.com/biz/serai-chicago?adjust_creative=HqIVls14KXg2kDlW7eRb9A&utm_campaign=yelp_api_v3&utm_medium=api_v3_business_search&utm_source=HqIVls14KXg2kDlW7eRb9A", "review_count": 716, "categories": [{"alias": "malaysian", "title": "Malaysian"}, {"alias": "asianfusion", "title": "Asian Fusion"}, {"alias": "desserts", "title": "Desserts"}], "rating": 4.0, "coordinates": {"latitude": 41.9206132, "longitude": -87.6933394}, "transactions": ["pickup", "delivery", "restaurant_reservation"], "price": "$$", "location": {"address1": "2169 N Milwaukee Ave", "address2": null, "address3": "", "city": "Chicago", "zip_code": "60647", "country": "US", "state": "IL", "display_address": ["2169 N Milwaukee Ave", "Chicago, IL 60647"]}, "phone": "+18722068368", "display_phone": "(872) 206-8368", "distance": 2163.291088641846}, {"id": "OSyGZMwCI9w_0BbQtH-kCw", "alias": "duck-duck-goat-chicago", "name": "Duck Duck Goat", "image_url": "https://s3-media4.fl.yelpcdn.com/bphoto/B-9g9Mgdy6TCJv7NeRgwFA/o.jpg", "is_closed": false, "url": "https://www.yelp.com/biz/duck-duck-goat-chicago?adjust_creative=HqIVls14KXg2kDlW7eRb9A&utm_campaign=yelp_api_v3&utm_medium=api_v3_business_search&utm_source=HqIVls14KXg2kDlW7eRb9A", "review_count": 1848, "categories": [{"alias": "chinese", "title": "Chinese"}], "rating": 4.0, "coordinates": {"latitude": 41.8865, "longitude": -87.6491}, "transactions": ["delivery"], "price": "$$$", "location": {"address1": "857 W Fulton Market", "address2": "", "address3": "", "city": "Chicago", "zip_code": "60607", "country": "US", "state": "IL", "display_address": ["857 W Fulton Market", "Chicago, IL 60607"]}, "phone": "+13129023825", "display_phone": "(312) 902-3825", "distance": 3025.3223162743307}, {"id": "GlS0EjpsWHZ4AvgSTTDHkQ", "alias": "super-china-buffet-norridge", "name": "Super China Buffet", "image_url": "https://s3-media3.fl.yelpcdn.com/bphoto/ZP-mxeteqNaMHVkj577c1A/o.jpg", "is_closed": false, "url": "https://www.yelp.com/biz/super-china-buffet-norridge?adjust_creative=HqIVls14KXg2kDlW7eRb9A&utm_campaign=yelp_api_v3&utm_medium=api_v3_business_search&utm_source=HqIVls14KXg2kDlW7eRb9A", "review_count": 175, "categories": [{"alias": "chinese", "title": "Chinese"}, {"alias": "buffets", "title": "Buffets"}], "rating": 2.5, "coordinates": {"latitude": 41.9551464, "longitude": -87.8071551}, "transactions": ["pickup"], "price": "$$", "location": {"address1": "4125 N Harlem Ave", "address2": "", "address3": "", "city": "Norridge", "zip_code": "60706", "country": "US", "state": "IL", "display_address": ["4125 N Harlem Ave", "Norridge, IL 60706"]}, "phone": "+17084579033", "display_phone": "(708) 457-9033", "distance": 12021.381534901533}, {"id": "hTzskXtAM7R9B4h4PvW-RA", "alias": "new-china-tea-chicago", "name": "New China Tea", "image_url": "https://s3-media2.fl.yelpcdn.com/bphoto/6zzwLIOLlOOuUREJj0uprQ/o.jpg", "is_closed": false, "url": "https://www.yelp.com/biz/new-china-tea-chicago?adjust_creative=HqIVls14KXg2kDlW7eRb9A&utm_campaign=yelp_api_v3&utm_medium=api_v3_business_search&utm_source=HqIVls14KXg2kDlW7eRb9A", "review_count": 70, "categories": [{"alias": "chinese", "title": "Chinese"}, {"alias": "coffee", "title": "Coffee & Tea"}], "rating": 3.5, "coordinates": {"latitude": 41.7934722900391, "longitude": -87.7242202758789}, "transactions": ["pickup", "delivery"], "price": "$", "location": {"address1": "4024 W 55th St", "address2": "", "address3": "", "city": "Chicago", "zip_code": "60632", "country": "US", "state": "IL", "display_address": ["4024 W 55th St", "Chicago, IL 60632"]}, "phone": "+17732842463", "display_phone": "(773) 284-2463", "distance": 12999.844929740862}, {"id": "r0maYetuG9F4uZVwVj9qeg", "alias": "qiao-lin-hotpot-chicago-chicago", "name": "Qiao Lin Hotpot - Chicago", "image_url": "https://s3-media1.fl.yelpcdn.com/bphoto/L4YxG9TmYul4IJrj9rCJHg/o.jpg", "is_closed": false, "url": "https://www.yelp.com/biz/qiao-lin-hotpot-chicago-chicago?adjust_creative=HqIVls14KXg2kDlW7eRb9A&utm_campaign=yelp_api_v3&utm_medium=api_v3_business_search&utm_source=HqIVls14KXg2kDlW7eRb9A", "review_count": 456, "categories": [{"alias": "hotpot", "title": "Hot Pot"}, {"alias": "chinese", "title": "Chinese"}], "rating": 4.5, "coordinates": {"latitude": 41.85388, "longitude": -87.641725}, "transactions": ["pickup", "delivery", "restaurant_reservation"], "location": {"address1": "2105 S Jefferson St", "address2": "Ste A", "address3": null, "city": "Chicago", "zip_code": "60616", "country": "US", "state": "IL", "display_address": ["2105 S Jefferson St", "Ste A", "Chicago, IL 60616"]}, "phone": "+13126009779", "display_phone": "(312) 600-9779", "distance": 6437.148592883637}, {"id": "Td-uLb5BUifr7Su-eKKqyw", "alias": "lao-sze-chuan-chicago-5", "name": "Lao Sze Chuan", "image_url": "https://s3-media2.fl.yelpcdn.com/bphoto/Lmse_qmqOUOQCm_kxeVtQA/o.jpg", "is_closed": false, "url": "https://www.yelp.com/biz/lao-sze-chuan-chicago-5?adjust_creative=HqIVls14KXg2kDlW7eRb9A&utm_campaign=yelp_api_v3&utm_medium=api_v3_business_search&utm_source=HqIVls14KXg2kDlW7eRb9A", "review_count": 1047, "categories": [{"alias": "szechuan", "title": "Szechuan"}, {"alias": "dimsum", "title": "Dim Sum"}], "rating": 3.5, "coordinates": {"latitude": 41.8914408, "longitude": -87.6243185}, "transactions": ["pickup", "delivery"], "price": "$$", "location": {"address1": "520 N Michigan Ave", "address2": "Ste 420", "address3": "", "city": "Chicago", "zip_code": "60611", "country": "US", "state": "IL", "display_address": ["520 N Michigan Ave", "Ste 420", "Chicago, IL 60611"]}, "phone": "+13125950888", "display_phone": "(312) 595-0888", "distance": 4631.736113029684}, {"id": "WimXBIxydgIpyLtrzYXtPw", "alias": "great-china-house-chicago", "name": "Great China House", "image_url": "https://s3-media2.fl.yelpcdn.com/bphoto/S3VgqAzSEnttbk9QcZtWqw/o.jpg", "is_closed": false, "url": "https://www.yelp.com/biz/great-china-house-chicago?adjust_creative=HqIVls14KXg2kDlW7eRb9A&utm_campaign=yelp_api_v3&utm_medium=api_v3_business_search&utm_source=HqIVls14KXg2kDlW7eRb9A", "review_count": 8, "categories": [{"alias": "chinese", "title": "Chinese"}], "rating": 4.5, "coordinates": {"latitude": 41.8506555813284, "longitude": -87.6763534920326}, "transactions": ["delivery"], "location": {"address1": "2300 S Damen Ave", "address2": "", "address3": "", "city": "Chicago", "zip_code": "60608", "country": "US", "state": "IL", "display_address": ["2300 S Damen Ave", "Chicago, IL 60608"]}, "phone": "+17733768891", "display_phone": "(773) 376-8891", "distance": 6061.651821311293}, {"id": "G72-HHDun9xx4lxejF8NEw", "alias": "mr-dumpling-chicago-2", "name": "Mr Dumpling", "image_url": "https://s3-media2.fl.yelpcdn.com/bphoto/cqJcpS6xJy379MER-cdKBA/o.jpg", "is_closed": false, "url": "https://www.yelp.com/biz/mr-dumpling-chicago-2?adjust_creative=HqIVls14KXg2kDlW7eRb9A&utm_campaign=yelp_api_v3&utm_medium=api_v3_business_search&utm_source=HqIVls14KXg2kDlW7eRb9A", "review_count": 94, "categories": [{"alias": "chinese", "title": "Chinese"}], "rating": 4.0, "coordinates": {"latitude": 41.92777885016586, "longitude": -87.64163193697226}, "transactions": ["pickup", "delivery"], "location": {"address1": "2485 N Clark St", "address2": null, "address3": "", "city": "Chicago", "zip_code": "60614", "country": "US", "state": "IL", "display_address": ["2485 N Clark St", "Chicago, IL 60614"]}, "phone": "+17733601864", "display_phone": "(773) 360-1864", "distance": 3906.9898271413776}, {"id": "7Mx9gz1xibtIKDr7Xt7Xjw", "alias": "shang-noodle-and-asian-small-plates-south-loop-chicago", "name": "Shang Noodle and Asian Small Plates - South Loop", "image_url": "https://s3-media1.fl.yelpcdn.com/bphoto/7iUA3B51astPEOxFlv8LaA/o.jpg", "is_closed": false, "url": "https://www.yelp.com/biz/shang-noodle-and-asian-small-plates-south-loop-chicago?adjust_creative=HqIVls14KXg2kDlW7eRb9A&utm_campaign=yelp_api_v3&utm_medium=api_v3_business_search&utm_source=HqIVls14KXg2kDlW7eRb9A", "review_count": 108, "categories": [{"alias": "chinese", "title": "Chinese"}, {"alias": "noodles", "title": "Noodles"}, {"alias": "tapasmallplates", "title": "Tapas/Small Plates"}], "rating": 4.0, "coordinates": {"latitude": 41.86918649665611, "longitude": -87.62563998666667}, "transactions": ["pickup", "delivery"], "price": "$$", "location": {"address1": "1101 S Wabash Ave", "address2": "", "address3": null, "city": "Chicago", "zip_code": "60605", "country": "US", "state": "IL", "display_address": ["1101 S Wabash Ave", "Chicago, IL 60605"]}, "phone": "+13124880820", "display_phone": "(312) 488-0820", "distance": 5883.733308924078}, {"id": "eHpf-vadyWIK23bdK67IXA", "alias": "dolo-restaurant-and-bar-chicago-3", "name": "Dolo Restaurant and Bar", "image_url": "https://s3-media1.fl.yelpcdn.com/bphoto/jk86QtAE8MA-rFKN-FokQQ/o.jpg", "is_closed": false, "url": "https://www.yelp.com/biz/dolo-restaurant-and-bar-chicago-3?adjust_creative=HqIVls14KXg2kDlW7eRb9A&utm_campaign=yelp_api_v3&utm_medium=api_v3_business_search&utm_source=HqIVls14KXg2kDlW7eRb9A", "review_count": 596, "categories": [{"alias": "dimsum", "title": "Dim Sum"}, {"alias": "bars", "title": "Bars"}, {"alias": "seafood", "title": "Seafood"}], "rating": 4.0, "coordinates": {"latitude": 41.85256855458039, "longitude": -87.6361052}, "transactions": ["pickup", "delivery", "restaurant_reservation"], "price": "$$", "location": {"address1": "2222 S Archer Ave", "address2": "", "address3": "", "city": "Chicago", "zip_code": "60616", "country": "US", "state": "IL", "display_address": ["2222 S Archer Ave", "Chicago, IL 60616"]}, "phone": "+13128775117", "display_phone": "(312) 877-5117", "distance": 6789.170028553436}, {"id": "l-_sDyPCS43_dWl7qnhgUA", "alias": "hong-huah-chicago", "name": "Hong Huah", "image_url": "https://s3-media1.fl.yelpcdn.com/bphoto/qFz21_EV3klpJbAQm5uMIQ/o.jpg", "is_closed": false, "url": "https://www.yelp.com/biz/hong-huah-chicago?adjust_creative=HqIVls14KXg2kDlW7eRb9A&utm_campaign=yelp_api_v3&utm_medium=api_v3_business_search&utm_source=HqIVls14KXg2kDlW7eRb9A", "review_count": 109, "categories": [{"alias": "chinese", "title": "Chinese"}, {"alias": "seafood", "title": "Seafood"}, {"alias": "vegetarian", "title": "Vegetarian"}], "rating": 4.0, "coordinates": {"latitude": 41.9241333007812, "longitude": -87.7743301391602}, "transactions": ["pickup", "delivery"], "price": "$", "location": {"address1": "5924 W Fullerton Ave", "address2": null, "address3": "", "city": "Chicago", "zip_code": "60639", "country": "US", "state": "IL", "display_address": ["5924 W Fullerton Ave", "Chicago, IL 60639"]}, "phone": "+17738894800", "display_phone": "(773) 889-4800", "distance": 8264.870733821013}, {"id": "t1JvtwWvVRuHrRZI4m-9SA", "alias": "hong-kong-restaurant-chicago", "name": "Hong Kong Restaurant", "image_url": "https://s3-media1.fl.yelpcdn.com/bphoto/1wTCvb7AD-BJIiIf5PDeAg/o.jpg", "is_closed": false, "url": "https://www.yelp.com/biz/hong-kong-restaurant-chicago?adjust_creative=HqIVls14KXg2kDlW7eRb9A&utm_campaign=yelp_api_v3&utm_medium=api_v3_business_search&utm_source=HqIVls14KXg2kDlW7eRb9A", "review_count": 51, "categories": [{"alias": "chinese", "title": "Chinese"}], "rating": 3.5, "coordinates": {"latitude": 41.7935551, "longitude": -87.6935926}, "transactions": ["pickup", "delivery"], "price": "$", "location": {"address1": "2757 W 55th St", "address2": "", "address3": "", "city": "Chicago", "zip_code": "60632", "country": "US", "state": "IL", "display_address": ["2757 W 55th St", "Chicago, IL 60632"]}, "phone": "+17734364044", "display_phone": "(773) 436-4044", "distance": 12485.794877078722}, {"id": "VPUiIyXHHTcIs06ca_hRSQ", "alias": "silk-road-chicago", "name": "Silk Road", "image_url": "https://s3-media2.fl.yelpcdn.com/bphoto/UfdJeZdxcJ5XP-pcQxNQxg/o.jpg", "is_closed": false, "url": "https://www.yelp.com/biz/silk-road-chicago?adjust_creative=HqIVls14KXg2kDlW7eRb9A&utm_campaign=yelp_api_v3&utm_medium=api_v3_business_search&utm_source=HqIVls14KXg2kDlW7eRb9A", "review_count": 127, "categories": [{"alias": "chinese", "title": "Chinese"}], "rating": 4.0, "coordinates": {"latitude": 41.8812872634843, "longitude": -87.631418809387}, "transactions": ["pickup", "delivery"], "price": "$", "location": {"address1": "19 S La Salle St", "address2": "", "address3": "", "city": "Chicago", "zip_code": "60603", "country": "US", "state": "IL", "display_address": ["19 S La Salle St", "Chicago, IL 60603"]}, "phone": "+12244041999", "display_phone": "(224) 404-1999", "distance": 4665.007443754689}, {"id": "rbsirSrIBx5y8nOvGwoNjA", "alias": "taste-of-china-chicago-4", "name": "Taste of China", "image_url": "https://s3-media1.fl.yelpcdn.com/bphoto/9FuAziS7u6kjOzHIzYahRw/o.jpg", "is_closed": false, "url": "https://www.yelp.com/biz/taste-of-china-chicago-4?adjust_creative=HqIVls14KXg2kDlW7eRb9A&utm_campaign=yelp_api_v3&utm_medium=api_v3_business_search&utm_source=HqIVls14KXg2kDlW7eRb9A", "review_count": 19, "categories": [{"alias": "chinese", "title": "Chinese"}], "rating": 4.0, "coordinates": {"latitude": 41.92756, "longitude": -87.65148}, "transactions": ["pickup", "delivery"], "location": {"address1": "2511 N Lincoln Ave", "address2": null, "address3": "", "city": "Chicago", "zip_code": "60614", "country": "US", "state": "IL", "display_address": ["2511 N Lincoln Ave", "Chicago, IL 60614"]}, "phone": "", "display_phone": "", "distance": 3309.426434178648}, {"id": "yFq9EHQXAoyR80msdq1ZRw", "alias": "xian-cuisine-chicago", "name": "Xi'an Cuisine", "image_url": "https://s3-media4.fl.yelpcdn.com/bphoto/BC_I-SMCeBUcJOFmeYDuIA/o.jpg", "is_closed": false, "url": "https://www.yelp.com/biz/xian-cuisine-chicago?adjust_creative=HqIVls14KXg2kDlW7eRb9A&utm_campaign=yelp_api_v3&utm_medium=api_v3_business_search&utm_source=HqIVls14KXg2kDlW7eRb9A", "review_count": 279, "categories": [{"alias": "chinese", "title": "Chinese"}], "rating": 4.0, "coordinates": {"latitude": 41.85262, "longitude": -87.63309}, "transactions": ["pickup", "delivery"], "price": "$$", "location": {"address1": "225 W Cermak Rd", "address2": "", "address3": "", "city": "Chicago", "zip_code": "60616", "country": "US", "state": "IL", "display_address": ["225 W Cermak Rd", "Chicago, IL 60616"]}, "phone": "+13123263171", "display_phone": "(312) 326-3171", "distance": 6911.2312513254765}, {"id": "75gu14YbLCxmMVg5ENPKrw", "alias": "1st-chop-suey-chicago", "name": "1st Chop Suey", "image_url": "https://s3-media1.fl.yelpcdn.com/bphoto/eewXHKyA9uF4dMDOBUQ2OQ/o.jpg", "is_closed": false, "url": "https://www.yelp.com/biz/1st-chop-suey-chicago?adjust_creative=HqIVls14KXg2kDlW7eRb9A&utm_campaign=yelp_api_v3&utm_medium=api_v3_business_search&utm_source=HqIVls14KXg2kDlW7eRb9A", "review_count": 62, "categories": [{"alias": "chinese", "title": "Chinese"}], "rating": 4.0, "coordinates": {"latitude": 41.79563030121, "longitude": -87.761728335105}, "transactions": [], "price": "$", "location": {"address1": "5845 S Archer Ave", "address2": "", "address3": "", "city": "Chicago", "zip_code": "60638", "country": "US", "state": "IL", "display_address": ["5845 S Archer Ave", "Chicago, IL 60638"]}, "phone": "+17737670060", "display_phone": "(773) 767-0060", "distance": 14024.779268267695}, {"id": "dQCXxwQujjMB9YC_6wtRyg", "alias": "chinese-kitchen-chicago-5", "name": "Chinese Kitchen", "image_url": "https://s3-media4.fl.yelpcdn.com/bphoto/i29Grh1zsjjUiHHs9oApEQ/o.jpg", "is_closed": false, "url": "https://www.yelp.com/biz/chinese-kitchen-chicago-5?adjust_creative=HqIVls14KXg2kDlW7eRb9A&utm_campaign=yelp_api_v3&utm_medium=api_v3_business_search&utm_source=HqIVls14KXg2kDlW7eRb9A", "review_count": 43, "categories": [{"alias": "chinese", "title": "Chinese"}], "rating": 2.5, "coordinates": {"latitude": 41.945785, "longitude": -87.7469351}, "transactions": ["pickup", "delivery"], "price": "$", "location": {"address1": "3539 N Cicero Ave", "address2": "", "address3": "", "city": "Chicago", "zip_code": "60641", "country": "US", "state": "IL", "display_address": ["3539 N Cicero Ave", "Chicago, IL 60641"]}, "phone": "+17732832121", "display_phone": "(773) 283-2121", "distance": 7253.162461891803}, {"id": "vAdnUJl5ZKuTeZ7UmQvoDg", "alias": "chinese-kitchen-westmont", "name": "Chinese Kitchen", "image_url": "https://s3-media2.fl.yelpcdn.com/bphoto/fU9upfozD9stwMYeYaYyfw/o.jpg", "is_closed": false, "url": "https://www.yelp.com/biz/chinese-kitchen-westmont?adjust_creative=HqIVls14KXg2kDlW7eRb9A&utm_campaign=yelp_api_v3&utm_medium=api_v3_business_search&utm_source=HqIVls14KXg2kDlW7eRb9A", "review_count": 144, "categories": [{"alias": "chinese", "title": "Chinese"}], "rating": 3.5, "coordinates": {"latitude": 41.76854, "longitude": -87.97359}, "transactions": ["pickup", "delivery"], "price": "$$", "location": {"address1": "6551 S Cass Ave", "address2": "", "address3": "", "city": "Westmont", "zip_code": "60559", "country": "US", "state": "IL", "display_address": ["6551 S Cass Ave", "Westmont, IL 60559"]}, "phone": "+16309683828", "display_phone": "(630) 968-3828", "distance": 28828.861555300406}, {"id": "0PPM0wxA2r8XVM8vbMm9Pw", "alias": "mccb-chicago-\u65f6\u5c1a\u98df\u8c31-chicago", "name": "MCCB Chicago \u65f6\u5c1a\u98df\u8c31", "image_url": "https://s3-media2.fl.yelpcdn.com/bphoto/JPHVrUBDp6SH3nL35hzjgQ/o.jpg", "is_closed": false, "url": "https://www.yelp.com/biz/mccb-chicago-%E6%97%B6%E5%B0%9A%E9%A3%9F%E8%B0%B1-chicago?adjust_creative=HqIVls14KXg2kDlW7eRb9A&utm_campaign=yelp_api_v3&utm_medium=api_v3_business_search&utm_source=HqIVls14KXg2kDlW7eRb9A", "review_count": 804, "categories": [{"alias": "chinese", "title": "Chinese"}], "rating": 4.5, "coordinates": {"latitude": 41.853906974902266, "longitude": -87.63366102533693}, "transactions": ["pickup", "delivery", "restaurant_reservation"], "price": "$$", "location": {"address1": "2138 South Archer Ave", "address2": null, "address3": "", "city": "Chicago", "zip_code": "60616", "country": "US", "state": "IL", "display_address": ["2138 South Archer Ave", "Chicago, IL 60616"]}, "phone": "+13128810168", "display_phone": "(312) 881-0168", "distance": 6768.375613862398}], "timestamp": "2023-11-11T03:33:40.470085"}